City_ID,City,Lat,Lng,Max Temp,Humidity,Cloudiness,Wind Speed,Country,Date
0,sarmiento,-45.5882,-69.07,15.09,33,0,0.56,AR,1712955609
1,tura,25.5198,90.2201,23.98,35,25,1.56,IN,1712955610
2,goodyear,33.4353,-112.3582,34.54,12,0,5.66,US,1712955610
3,ribeira grande,38.5167,-28.7,17.22,72,20,8.05,PT,1712955610
4,butembo,0.15,29.2833,16.25,96,100,0.67,CD,1712955610
5,cubatao,-23.895,-46.4253,28.85,55,75,4.12,BR,1712955611
6,iqaluit,63.7506,-68.5145,-9.15,61,20,11.32,CA,1712955611
7,baker city,44.7749,-117.8344,22.84,38,20,5.66,US,1712955455
8,putian,25.4394,119.0103,18.66,99,28,0.88,CN,1712955608
9,chadstone,-37.8877,145.0952,14.04,88,13,2.02,AU,1712955612
10,east london,-33.0153,27.9116,15.71,70,62,3.91,ZA,1712955612
11,akrehamn,59.2667,5.1833,8.33,93,100,5.66,NO,1712955612
12,isafjordur,66.0755,-23.124,-4.93,86,99,5.77,IS,1712955612
13,albany,42.6001,-73.9662,13.69,80,100,3.13,US,1712955613
14,mezzolombardo,46.209,11.0968,19.89,57,0,2.06,IT,1712955613
15,dunedin,-45.8742,170.5036,9.33,90,100,0.89,NZ,1712955580
16,hithadhoo,-0.6,73.0833,25.25,93,100,1.49,MV,1712955613
17,wailua homesteads,22.0669,-159.378,27.24,87,35,1.79,US,1712955613
18,la passe,45.5549,-0.8967,20.13,88,30,2.89,FR,1712955614
19,sao joao del rei,-21.1356,-44.2617,19.0,87,97,2.57,BR,1712955614
20,ushuaia,-54.8,-68.3,9.81,57,0,9.26,AR,1712955614
21,mabaruma,8.2,-59.7833,26.63,82,65,2.49,GY,1712955614
22,ilulissat,69.2167,-51.1,-4.61,91,100,3.7,GL,1712955615
23,margaret river,-33.95,115.0667,15.98,69,93,3.36,AU,1712955615
24,avarua,-21.2078,-159.775,27.03,89,75,7.72,CK,1712955615
25,kodiak,57.79,-152.4072,2.73,75,100,1.54,US,1712955616
26,port-aux-francais,-49.35,70.2167,9.0,98,100,16.77,TF,1712955616
27,tomatlan,19.9333,-105.25,32.86,39,99,3.86,MX,1712955616
28,iskateley,67.6803,53.1512,-15.64,91,100,7.12,RU,1712955616
29,bredasdorp,-34.5322,20.0403,14.51,73,67,4.65,ZA,1712955617
30,weno,7.4515,151.8468,27.97,83,100,2.57,FM,1712955617
31,galle,6.0367,80.217,25.25,89,100,3.22,LK,1712955617
32,punta del este,-34.9667,-54.95,20.06,75,100,6.71,UY,1712955618
33,nebraska city,40.6767,-95.8592,20.52,25,0,2.06,US,1712955618
34,kudahuvadhoo,2.6708,72.8944,29.03,72,100,3.66,MV,1712955618
35,northam,51.0333,-4.2167,12.01,93,100,3.8,GB,1712955618
36,ghadamis,30.1337,9.5007,12.77,62,0,3.74,LY,1712955619
37,bethel,41.3712,-73.414,15.67,75,100,6.17,US,1712955619
38,edinburgh of the seven seas,-37.0676,-12.3116,19.12,92,92,10.38,SH,1712955619
39,waitangi,-43.9535,-176.5597,17.12,96,100,4.02,NZ,1712955620
40,malvan,16.0667,73.4667,26.83,72,32,5.66,IN,1712955620
41,villa gesell,-37.2639,-56.973,15.59,70,100,5.3,AR,1712955620
42,khark,29.2614,50.3306,26.01,38,0,3.09,IR,1712955620
43,adamstown,-25.066,-130.1015,22.05,60,21,6.36,PN,1712955621
44,undurkhaan,47.3194,110.6556,6.81,55,72,2.27,MN,1712955621
45,mwene-ditu,-7.0,23.45,20.99,94,83,1.26,CD,1712955621
46,olonkinbyen,70.9221,-8.7187,-10.35,70,100,12.09,SJ,1712955622
47,puerto natales,-51.7236,-72.4875,12.25,62,0,5.66,CL,1712955622
48,aasiaat,68.7098,-52.8699,-6.32,85,99,2.65,GL,1712955622
49,alpena,45.0617,-83.4327,6.18,96,100,13.38,US,1712955622
50,bikenibeu village,1.3673,173.1241,28.98,79,40,2.57,KI,1712955623
51,bilibino,68.0546,166.4372,-10.06,83,100,1.29,RU,1712955623
52,badger,64.8,-147.5333,4.14,60,75,0.0,US,1712955611
53,safi,32.1667,-8.8333,24.21,22,0,6.06,MA,1712955623
54,lucapa,-8.4192,20.7447,20.27,96,99,1.26,AO,1712955624
55,oltinko'l,40.8011,72.1634,20.41,46,100,4.4,UZ,1712955624
56,axim,4.8699,-2.2405,27.51,85,51,2.53,GH,1712955624
57,lupane,-18.9315,27.807,17.95,89,100,3.55,ZW,1712955624
58,punta arenas,-53.15,-70.9167,12.06,62,0,10.8,CL,1712955625
59,ebon,4.582,168.6964,27.38,80,100,3.74,MH,1712955625
60,newman,37.3138,-121.0208,25.16,50,32,6.26,US,1712955625
61,zhangatas,43.5667,69.75,9.22,54,100,4.06,KZ,1712955626
62,yellowknife,62.456,-114.3525,5.23,77,75,8.23,CA,1712955626
63,nashik,19.9833,73.8,22.67,53,8,0.58,IN,1712955626
64,fauske,67.2588,15.3918,6.02,99,100,2.65,NO,1712955626
65,luderitz,-26.6481,15.1594,19.37,58,0,2.13,NA,1712955627
66,ilhabela,-23.7781,-45.3581,24.1,88,8,2.87,BR,1712955627
67,murzuq,25.9155,13.9184,23.89,24,0,5.37,LY,1712955627
68,pisco,-13.7,-76.2167,26.03,65,0,9.77,PE,1712955627
69,grytviken,-54.2811,-36.5092,2.56,90,100,6.81,GS,1712955628
70,tsiombe,-25.3,45.4833,19.4,76,88,0.88,MG,1712955628
71,goure,13.9835,10.2704,30.37,10,100,2.35,NE,1712955628
72,minas de marcona,-15.2119,-75.1103,21.08,64,85,6.86,PE,1712955628
73,ancud,-41.8697,-73.8203,14.19,63,0,0.88,CL,1712955629
74,boromo,11.75,-2.9333,35.95,17,45,0.35,BF,1712955629
75,mount isa,-20.7333,139.5,9.87,81,1,0.0,AU,1712955630
76,anadyr,64.75,177.4833,-12.72,71,0,5.0,RU,1712955630
77,chengde,40.9725,117.9361,12.82,66,21,0.84,CN,1712955630
78,bengkulu,-3.8004,102.2655,24.68,93,100,1.56,ID,1712955630
79,kyakhta,50.3508,106.4494,1.44,79,86,2.87,RU,1712955631
80,owando,-0.4819,15.8999,23.37,95,100,1.3,CG,1712955631
81,mbandaka,0.0487,18.2603,22.85,93,100,0.49,CD,1712955631
82,bardai,11.65,7.2333,30.74,18,100,0.78,NG,1712955631
83,atafu village,-8.5421,-172.5159,29.81,74,100,3.99,TK,1712955632
84,longyearbyen,78.2186,15.6401,-10.09,52,0,8.75,SJ,1712955632
85,enewetak,11.3474,162.3373,27.03,79,98,8.42,MH,1712955632
86,maymana,35.9214,64.7836,12.87,87,100,3.35,AF,1712955632
87,puerto baquerizo moreno,-0.9,-89.6,30.55,62,40,5.66,EC,1712955633
88,invercargill,-46.4,168.35,7.23,96,86,0.45,NZ,1712955633
89,romanovka,51.7443,42.7527,12.12,66,61,4.32,RU,1712955633
90,vila franca do campo,37.7167,-25.4333,18.27,99,95,1.68,PT,1712955633
91,semporna,4.4818,118.6112,25.26,88,43,1.01,MY,1712955599
92,haiku-pauwela,20.9219,-156.3051,26.79,78,75,2.68,US,1712955634
93,mendota,36.7536,-120.3816,30.15,22,23,5.32,US,1712955634
94,port mathurin,-19.6833,63.4167,26.74,72,83,7.21,MU,1712955634
95,richards bay,-28.783,32.0377,18.48,74,65,2.27,ZA,1712955634
96,shenkursk,62.1091,42.896,-0.55,93,100,4.02,RU,1712955635
97,laojunmiao,39.8333,97.7333,11.39,18,84,3.93,CN,1712955635
98,gadzhiyevo,69.2551,33.3362,-7.57,94,90,2.92,RU,1712955635
99,fresnillo,23.1667,-102.8833,25.46,15,100,6.25,MX,1712955636
100,al jawf,29.5,38.75,21.68,29,6,3.91,SA,1712955636
101,tuy hoa,13.0833,109.3,23.65,96,100,0.67,VN,1712955636
102,liman,48.9884,37.8023,15.27,46,81,3.31,UA,1712955636
103,anacapri,40.5558,14.2136,19.99,68,0,2.06,IT,1712955637
104,karmaskaly,54.3709,56.1837,9.95,77,100,2.99,RU,1712955637
105,harper,4.375,-7.7169,27.86,82,71,3.51,LR,1712955637
106,egilsstadir,65.2653,-14.3948,-2.05,100,100,8.23,IS,1712955637
107,hamilton,39.1834,-84.5333,14.78,80,75,8.23,US,1712955638
108,matehuala,23.65,-100.65,23.78,22,100,5.45,MX,1712955638
109,witu,-2.3889,40.4382,27.4,89,57,3.11,KE,1712955638
110,tiksi,71.6872,128.8694,-18.89,86,100,9.43,RU,1712955638
111,lazaro cardenas,17.9583,-102.2,31.26,50,80,6.31,MX,1712955639
112,praia da vitoria,38.7333,-27.0667,17.64,88,75,4.73,PT,1712955639
113,mossel bay,-34.1831,22.146,11.96,72,100,5.32,ZA,1712955639
114,queenstown,-31.8976,26.8753,7.72,74,100,1.74,ZA,1712955640
115,malango,-2.9627,119.9001,20.07,99,100,0.32,ID,1712955640
116,tanjung pinang,0.9167,104.45,26.02,84,100,2.91,ID,1712955640
117,yeppoon,-23.1333,150.7333,19.88,80,0,4.87,AU,1712955640
118,baloda bazar,21.6667,82.1667,26.59,48,33,1.86,IN,1712955641
119,richland,40.7834,-82.5499,11.72,84,100,4.02,US,1712955641
120,corner brook,48.9667,-57.9484,9.09,81,100,5.78,CA,1712955641
121,coquimbo,-29.9533,-71.3436,16.85,72,0,5.14,CL,1712955641
122,port shepstone,-30.7414,30.455,16.48,75,12,4.11,ZA,1712955642
123,papatowai,-46.5619,169.4708,8.31,81,68,1.32,NZ,1712955642
124,nyurba,63.2842,118.3319,-30.81,100,90,0.84,RU,1712955642
125,cabo san lucas,22.8909,-109.9124,28.12,63,100,3.13,MX,1712955574
126,thompson,55.7435,-97.8558,1.09,64,75,2.06,CA,1712955643
127,blackmans bay,-43.0167,147.3167,14.07,76,95,2.5,AU,1712955643
128,vadso,70.0744,29.7487,1.09,80,100,6.69,NO,1712955643
129,guerrero negro,27.9769,-114.0611,22.84,46,5,5.92,MX,1712955643
130,mount gambier,-37.8333,140.7667,9.95,85,7,1.63,AU,1712955644
131,onguday,50.75,86.15,-4.02,62,91,1.33,RU,1712955644
132,qaqortoq,60.7167,-46.0333,-3.14,74,100,1.15,GL,1712955644
133,elliot lake,46.3834,-82.6331,2.33,94,100,9.47,CA,1712955641
134,port moresby,-9.4431,147.1797,25.21,81,79,1.86,PG,1712955645
135,awjilah,29.1081,21.2869,22.88,19,0,3.98,LY,1712955645
136,la'ie,21.6477,-157.9253,25.98,85,96,2.68,US,1712955645
137,afaahiti,-17.75,-149.2833,28.93,83,100,12.03,PF,1712955645
138,hadibu,12.65,54.0333,27.32,78,13,2.12,YE,1712955646
139,saipan,15.1355,145.701,26.7,80,72,8.11,MP,1712955646
140,hasaki,35.7333,140.8333,11.27,77,84,7.85,JP,1712955646
141,sinabang,2.4803,96.3801,26.61,84,100,0.67,ID,1712955646
142,chui,-33.6971,-53.4616,18.25,68,99,5.13,UY,1712955647
143,lukolela,-1.0605,17.1821,22.99,86,100,1.57,CD,1712955647
144,pemba,-12.974,40.5178,27.39,78,75,6.17,MZ,1712955647
145,riohacha,11.5444,-72.9072,31.06,66,0,8.23,CO,1712955648
146,ulladulla,-35.35,150.4667,14.8,90,24,2.7,AU,1712955648
147,sinop,41.7711,34.8709,9.73,89,7,1.68,TR,1712955648
148,port lincoln,-34.7333,135.8667,14.26,65,61,2.21,AU,1712955649
149,champerico,14.3,-91.9167,37.3,66,9,6.03,GT,1712955649
150,onega,63.9061,38.1404,-2.27,89,96,2.0,RU,1712955649
151,udachny,66.4167,112.4,-23.64,90,52,2.21,RU,1712955649
152,villa bruzual,9.3328,-69.1208,38.9,21,100,1.34,VE,1712955650
153,san juan de uraba,8.7592,-76.5297,30.21,72,99,4.85,CO,1712955650
154,rajaori,33.3833,74.3,18.42,30,99,2.88,IN,1712955650
155,shimoda,34.6667,138.95,13.39,84,100,5.97,JP,1712955650
156,ust-nera,64.5667,143.2,-3.65,95,98,2.34,RU,1712955651
157,bodo,67.28,14.405,6.02,93,100,7.72,NO,1712955651
158,los andes,-32.8337,-70.5983,21.11,34,89,2.88,CL,1712955651
159,colonia,50.9333,6.95,17.68,79,0,2.57,DE,1712955609
160,krutinka,56.0055,71.5113,3.72,93,100,5.08,RU,1712955652
161,manta,-0.95,-80.7333,29.88,70,40,5.14,EC,1712955652
162,nemuro,43.3236,145.575,4.05,97,26,3.1,JP,1712955652
163,asau,46.4333,26.4,11.51,72,32,1.62,RO,1712955652
164,georgetown,5.4112,100.3354,27.96,89,20,1.03,MY,1712955653
165,kingston,17.997,-76.7936,32.87,65,20,7.2,JM,1712955622
166,syumsi,57.1111,51.6149,6.23,93,100,2.48,RU,1712955653
167,manaure,11.7751,-72.4445,32.6,49,61,10.0,CO,1712955653
168,mizan teferi,6.9833,35.5833,18.57,82,42,1.44,ET,1712955654
169,tierralta,8.1736,-76.0592,32.66,62,94,3.23,CO,1712955654
170,shepetivka,50.1855,27.0637,12.3,82,100,1.97,UA,1712955654
171,changyon,38.2508,125.0961,10.81,85,2,1.11,KP,1712955654
172,kavaratti,10.5669,72.642,29.39,66,11,2.45,IN,1712955655
173,pontes e lacerda,-15.2261,-59.3353,26.43,87,100,0.45,BR,1712955655
174,general conesa,-40.1,-64.4333,10.46,85,100,1.99,AR,1712955655
175,itoman,26.1247,127.6694,23.01,88,100,5.14,JP,1712955656
176,miguel ahumada,30.6167,-106.5167,28.31,9,100,9.85,MX,1712955656
177,arkhangel'sk,64.5401,40.5433,-1.94,74,75,4.0,RU,1712955656
178,canutama,-6.5339,-64.3831,26.42,94,87,1.31,BR,1712955656
179,lihue,21.9789,-159.3672,27.58,81,33,4.85,US,1712955657
180,jaisalmer,26.9147,70.9181,30.7,28,100,3.78,IN,1712955657
181,butterworth,5.3991,100.3638,28.02,89,20,1.03,MY,1712955657
182,dzuunmod,48.2199,97.3744,-3.42,97,100,2.63,MN,1712955658
183,jamestown,42.097,-79.2353,7.79,96,100,8.75,US,1712955532
184,keflavik,64.0049,-22.5624,1.95,80,20,9.26,IS,1712955658
185,sanski most,44.7653,16.6656,14.19,85,44,1.02,BA,1712955659
186,wau,7.7029,27.9953,30.14,13,76,1.45,SS,1712955659
187,ujae,8.9322,165.7642,27.52,74,100,9.1,MH,1712955659
188,tromso,69.6496,18.957,4.01,81,75,5.14,NO,1712955659
189,nova vicosa,-17.8919,-39.3719,26.72,79,4,4.7,BR,1712955660
190,morbi,22.8167,70.8333,26.22,68,57,6.66,IN,1712955660
191,vila velha,-20.3297,-40.2925,29.98,87,20,4.12,BR,1712955364
192,zhanaozen,43.3,52.8,12.41,28,2,3.51,KZ,1712955660
193,azna,33.6095,48.9307,7.09,60,0,2.48,IR,1712955661
194,nantucket,41.2835,-70.0995,12.06,96,100,9.26,US,1712955661
195,yelets,52.6237,38.5017,13.36,56,51,7.38,RU,1712955661
196,howard springs,-12.497,131.047,25.95,83,75,2.66,AU,1712955661
197,antofagasta,-23.65,-70.4,18.52,84,77,4.34,CL,1712955194
198,nadym,65.5333,72.5167,-1.69,96,100,4.59,RU,1712955662
199,crane,31.3974,-102.3501,28.36,14,100,12.15,US,1712955662
200,stanley,54.868,-1.6985,10.84,85,40,2.57,GB,1712955662
201,lompoc,34.6391,-120.4579,19.88,64,100,6.17,US,1712955663
202,sawakin,19.1059,37.3321,25.62,59,99,3.52,SD,1712955663
203,zheshart,62.0731,49.5733,0.6,86,98,3.78,RU,1712955663
204,sinan,34.8262,126.1086,10.06,81,4,2.5,KR,1712955663
205,magadan,59.5667,150.8,-4.46,89,9,1.79,RU,1712955664
206,petropavlovsk-kamchatsky,53.0452,158.6483,-0.67,93,75,2.0,RU,1712955664
207,keminmaa,65.8596,24.8228,0.87,86,100,2.06,FI,1712955664
208,severo-vostotchnyi bank,39.4112,49.2479,10.95,64,20,1.25,AZ,1712955665
209,den burg,53.0542,4.7972,13.87,85,100,7.72,NL,1712955665
210,whitehorse,60.7161,-135.0538,4.43,32,75,8.75,CA,1712955665
211,talnakh,69.4865,88.3972,-16.31,78,100,6.15,RU,1712955665
212,jaguaruna,-28.615,-49.0256,20.84,92,100,5.29,BR,1712955666
213,cuenca,-2.8833,-78.9833,23.07,38,75,6.17,EC,1712955666
214,maamba,-17.3667,27.15,20.04,85,91,1.26,ZM,1712955666
215,taytay,14.5678,121.1394,27.73,74,20,1.03,PH,1712955666
216,chonchi,-42.6128,-73.8092,16.56,57,0,1.41,CL,1712955667
217,porto novo,6.4965,2.6036,29.9,80,100,3.04,BJ,1712955667
218,saldanha,-33.0117,17.9442,15.03,68,7,5.27,ZA,1712955667
219,hawaiian paradise park,19.5933,-154.9731,23.35,92,100,0.45,US,1712955667
220,vilyuchinsk,52.9306,158.4028,0.15,90,62,1.3,RU,1712955668
221,dzhangala,49.2167,50.3333,15.84,76,98,4.34,KZ,1712955668
222,zayed city,24.3768,54.589,27.08,50,0,3.09,AE,1712955668
223,zaozersk,69.4005,32.4476,-6.55,97,97,1.96,RU,1712955668
224,cidreira,-30.1811,-50.2056,20.85,90,100,8.76,BR,1712955669
225,port hope,43.9408,-82.7127,7.34,81,100,11.83,US,1712955669
226,tofol,5.3248,163.0078,27.21,83,100,4.34,FM,1712955669
227,tahe,52.3333,124.7333,-0.42,89,89,1.71,CN,1712955669
228,dera bugti,29.0307,69.151,26.46,36,100,2.71,PK,1712955670
229,quellon,-43.1167,-73.6167,12.32,69,0,3.86,CL,1712955670
230,merritt,50.1123,-120.7942,15.18,33,99,1.34,CA,1712955663
231,rikaze,29.25,88.8833,5.27,41,90,1.5,CN,1712955670
232,west island,-12.1568,96.8225,25.99,94,49,2.57,CC,1712955671
233,bhimavaram,16.5333,81.5333,24.68,90,1,1.77,IN,1712955671
234,chunskiy,56.0815,99.6342,-4.62,73,56,4.0,RU,1712955671
235,callao,-12.0667,-77.15,24.16,69,0,6.69,PE,1712955672
236,port alfred,-33.5906,26.891,15.75,72,85,2.98,ZA,1712955672
237,puerto ayora,-0.7393,-90.3518,28.98,92,57,4.02,EC,1712955672
238,pariaman,-0.619,100.12,26.03,85,100,1.78,ID,1712955672
239,yuzhno-kurilsk,44.0306,145.8556,4.65,76,98,1.86,RU,1712955673
240,bishkul,54.7803,69.1033,7.19,93,0,6.0,KZ,1712955673
241,al kharijah,25.4514,30.5464,22.04,25,99,4.35,EG,1712955673
242,shache,38.4167,77.2406,17.62,14,100,2.51,CN,1712955673
243,nargund,15.7167,75.3833,28.96,46,10,1.97,IN,1712955674
244,kongsvinger,60.1905,11.9977,8.37,96,54,2.01,NO,1712955674
245,vilyuysk,63.7553,121.6247,-30.56,100,91,0.89,RU,1712955675
246,arauca,7.0847,-70.7591,34.98,38,20,1.03,CO,1712955547
247,nunchritz,51.2999,13.3856,16.78,88,100,3.67,DE,1712955675
248,conde,-7.2597,-34.9075,28.7,79,20,3.6,BR,1712955675
249,gamba,-2.65,10.0,25.89,88,100,0.84,GA,1712955676
250,zhezqazghan,47.7833,67.7667,6.76,37,62,2.04,KZ,1712955676
251,el nido,11.1858,119.3956,26.72,81,87,1.7,PH,1712955676
252,suva,-18.1416,178.4415,27.71,78,20,0.0,FJ,1712955377
253,crucecita,-28.95,-58.9833,20.19,89,100,3.61,AR,1712955677
254,soe,-9.8607,124.284,17.03,98,82,1.61,ID,1712955677
255,constantia,44.1833,28.65,15.39,63,6,4.39,RO,1712955677
256,port elizabeth,-33.918,25.5701,12.95,88,0,1.54,ZA,1712955615
257,antsiranana,-12.2787,49.2917,25.8,91,55,3.05,MG,1712955678
258,pathein,16.7833,94.7333,27.02,74,1,3.77,MM,1712955678
259,salmas,38.1973,44.7653,9.72,53,0,1.4,IR,1712955678
260,aksuat,48.7167,83.7,-1.21,54,70,2.53,KZ,1712955679
261,illizi,26.4833,8.4667,18.89,33,0,6.93,DZ,1712955679
262,san luis de la loma,17.2706,-100.8939,33.0,45,1,5.64,MX,1712955679
263,broome,42.2506,-75.833,11.67,86,100,6.18,US,1712955680
264,karratha,-20.7377,116.8463,25.33,77,0,2.18,AU,1712955680
265,susuman,62.7833,148.1667,-12.23,97,70,1.79,RU,1712955680
266,beroroha,-21.6667,45.1667,20.92,66,5,1.94,MG,1712955681
267,utrik,11.2278,169.8474,26.63,80,46,9.01,MH,1712955681
268,constitucion,-35.3333,-72.4167,15.25,69,83,3.2,CL,1712955681
269,zeliezovce,48.0508,18.6542,13.98,68,74,1.45,SK,1712955681
270,ust'-kulom,61.6864,53.6902,1.52,97,85,3.17,RU,1712955682
271,bintulu,3.1667,113.0333,27.23,94,40,1.03,MY,1712955682
272,ingeniero guillermo n. juarez,-23.9,-61.85,16.85,94,100,2.78,AR,1712955682
273,port blair,11.6667,92.75,27.37,80,4,1.61,IN,1712955683
274,kenai,60.5544,-151.2583,4.05,76,20,6.17,US,1712955608
275,tosontsengel,48.7567,98.2839,-0.6,78,100,4.5,MN,1712955683
276,nogliki,51.8333,143.1667,-0.92,97,100,1.79,RU,1712955683
277,upper sandusky,40.8273,-83.2813,12.49,78,100,12.46,US,1712955683
278,katsuura,35.1333,140.3,14.65,84,98,7.58,JP,1712955684
279,kuta,-8.7233,115.1723,25.97,94,75,3.13,ID,1712955684
280,remire-montjoly,4.9167,-52.2667,29.02,74,75,6.69,GF,1712955684
281,caconda,-13.7333,15.0667,17.28,94,100,4.01,AO,1712955684
282,al jadid,27.05,14.4,23.31,24,21,5.28,LY,1712955685
283,ribeira brava,32.65,-17.0667,23.96,37,23,3.6,PT,1712955685
284,salaqi,40.5414,110.5108,16.36,26,100,4.06,CN,1712955685
285,scottburgh,-30.2867,30.7532,16.06,75,6,4.07,ZA,1712955685
286,hermanus,-34.4187,19.2345,14.33,75,46,6.07,ZA,1712955686
287,sungai penuh,-2.0833,101.3833,19.24,96,100,1.25,ID,1712955686
288,broken hill,-31.95,141.4333,10.99,61,42,3.79,AU,1712955686
289,vernon,50.2581,-119.2691,16.8,41,100,1.03,CA,1712955608
290,madalena,41.2162,-8.3345,19.75,67,83,0.65,PT,1712955687
291,bamboo flat,11.7,92.7167,26.82,80,3,1.5,IN,1712955687
292,cooper's town,26.8667,-77.5167,22.66,66,6,3.73,BS,1712955687
293,inhambane,-23.865,35.3833,22.01,72,95,2.87,MZ,1712955687
294,patterson,37.4716,-121.1297,24.54,48,67,5.14,US,1712955688
295,saint-philippe,-21.3585,55.7679,26.77,87,81,2.01,RE,1712955688
296,belmonte,-15.8631,-38.8828,26.47,80,49,3.61,BR,1712955688
297,karkira,36.9292,6.5856,11.64,81,58,1.74,DZ,1712955688
298,chibougamau,49.9168,-74.3659,8.79,100,100,5.14,CA,1712955689
299,flying fish cove,-10.4217,105.6791,26.82,83,40,4.63,CX,1712955689
300,dudinka,69.4058,86.1778,-12.4,79,100,10.28,RU,1712955689
301,mahibadhoo,3.7833,72.9667,29.08,72,37,1.16,MV,1712955689
302,pagalungan,7.1417,124.3806,22.72,88,11,1.37,PH,1712955690
303,happy valley-goose bay,53.3168,-60.3315,6.17,100,100,2.57,CA,1712955690
304,revda,56.801,59.9303,5.66,89,99,3.2,RU,1712955690
305,bayan,46.0833,127.4,10.51,92,56,2.19,CN,1712955691
306,amungan,15.3652,119.9582,26.66,68,13,1.39,PH,1712955691
307,songea,-10.6833,35.65,18.45,99,100,1.67,TZ,1712955691
308,whakatane,-37.9585,176.9854,16.95,89,5,2.09,NZ,1712955691
309,talcahuano,-36.7167,-73.1167,13.82,82,0,4.12,CL,1712955692
310,hammerfest,70.6634,23.6821,3.25,70,0,7.72,NO,1712955692
311,valdivia,-39.8142,-73.2459,20.05,47,0,1.88,CL,1712955692
312,qarqaraly,49.4058,75.4742,0.29,54,9,3.66,KZ,1712955692
313,borogontsy,62.6683,131.1683,-23.69,97,40,2.11,RU,1712955693
314,ipojuca,-8.3989,-35.0639,29.95,83,6,2.64,BR,1712955693
315,chokwe,-24.5333,32.9833,18.23,87,56,2.32,MZ,1712955693
316,khandyga,62.6667,135.6,-17.74,96,100,1.69,RU,1712955693
317,gouyave,12.1646,-61.7296,29.43,66,20,7.72,GD,1712955694
318,medina de rioseco,41.8833,-5.0441,18.83,49,17,1.69,ES,1712955694
319,eirunepe,-6.6603,-69.8736,30.48,71,75,0.66,BR,1712955694
320,pasuquin,18.3328,120.6177,25.97,94,20,1.03,PH,1712955694
321,okha,53.5739,142.9478,1.81,89,75,1.79,RU,1712955695
322,estes park,40.3772,-105.5217,21.13,14,0,6.26,US,1712955695
323,pangody,65.85,74.4859,-2.87,96,100,7.36,RU,1712955695
324,newport,51.5877,-2.9984,13.03,90,100,5.21,GB,1712955695
325,kabinda,-6.1333,24.4833,22.03,87,68,1.72,CD,1712955696
326,mata-utu,-13.2816,-176.1745,29.13,79,67,7.29,WF,1712955696
327,kiffa,16.6166,-11.4045,35.94,10,89,5.6,MR,1712955696
328,dongyang,29.2678,120.2253,18.75,96,97,1.19,CN,1712955696
329,musawa,12.1272,7.6698,30.15,9,100,0.4,NG,1712955697
330,shangqiu,34.45,115.65,15.09,97,0,4.23,CN,1712955697
331,bugul'ma,54.55,52.8,9.96,71,46,2.6,RU,1712955697
332,poronaysk,49.2167,143.1167,4.14,88,44,2.48,RU,1712955697
333,retreat,38.8245,-85.8533,16.85,75,99,2.68,US,1712955698
334,preobrazheniye,42.9019,133.9064,7.99,86,55,1.99,RU,1712955698
335,boundiali,9.5217,-6.4869,25.65,71,76,3.18,CI,1712955698
336,tolanaro,-25.0319,46.9987,23.04,83,40,2.06,MG,1712955699
337,fedorovskiy,45.0972,40.9517,13.33,83,99,3.49,RU,1712955699
338,negapatam,10.7667,79.8333,28.13,77,33,3.31,IN,1712955699
339,klyuchi,52.2667,79.1667,2.74,64,96,6.41,RU,1712955699
340,arraial do cabo,-22.9661,-42.0278,26.92,78,40,3.09,BR,1712955700
341,junin,-34.5838,-60.9433,17.54,58,100,6.88,AR,1712955700
342,chernyshevskiy,63.0128,112.4714,-29.8,100,93,1.29,RU,1712955700
343,panaba,21.2833,-88.2667,30.3,41,26,7.71,MX,1712955700
344,bakanas,44.8081,76.2772,5.35,42,100,6.89,KZ,1712955701
345,tazovsky,67.4667,78.7,-8.52,93,100,10.2,RU,1712955701
346,port saint john's,-31.6229,29.5448,16.26,75,96,2.91,ZA,1712955701
347,la belgica,-17.55,-63.2167,23.49,94,100,1.03,BO,1712955701
348,upington,-28.4478,21.2561,18.21,32,26,1.03,ZA,1712955702
349,namibe,-15.1961,12.1522,22.24,74,34,3.95,AO,1712955702
350,baloda,22.15,82.4833,25.58,46,36,0.53,IN,1712955702
351,motueka,-41.1333,173.0167,13.94,94,100,1.33,NZ,1712955703
352,trujillo,-8.116,-79.03,21.98,83,78,6.17,PE,1712955626
353,el calafate,-50.3408,-72.2768,10.06,69,4,1.41,AR,1712955703
354,palapag,12.5458,125.1147,23.97,92,100,1.86,PH,1712955703
355,necochea,-38.5473,-58.7368,12.99,76,100,1.41,AR,1712955703
356,la ronge,55.1001,-105.2842,7.14,53,100,6.17,CA,1712955704
357,tulle,45.3333,1.8333,13.3,83,26,1.51,FR,1712955704
358,chiang mai,18.75,99.0,28.18,73,40,2.06,TH,1712955704
359,walvis bay,-22.9575,14.5053,16.77,83,11,0.81,NA,1712955704
360,polyarnyy,69.1989,33.4478,-7.14,91,89,2.89,RU,1712955705
361,yelizovo,53.1873,158.3805,0.08,93,75,2.0,RU,1712955705
362,torres,-29.3353,-49.7269,21.59,92,100,6.44,BR,1712955705
363,kruisfontein,-34.0033,24.7314,11.05,78,44,1.41,ZA,1712955706
364,port sudan,19.6175,37.2164,25.22,61,0,3.41,SD,1712955706
365,sultanah,24.4926,39.5857,29.25,20,0,4.12,SA,1712955706
366,hanceville,34.0607,-86.7675,21.46,42,1,6.08,US,1712955707
367,iquitos,-3.7481,-73.2472,32.02,74,75,1.03,PE,1712955707
368,gaalkacyo,6.7697,47.4308,27.21,79,88,6.76,SO,1712955707
369,portland,45.5234,-122.6762,19.78,58,75,4.63,US,1712955319
370,san antonio de pale,-1.4014,5.6325,27.95,78,47,5.43,GQ,1712955708
371,pointe-noire,-4.7761,11.8635,27.04,89,20,3.6,CG,1712955626
372,urangan,-25.3,152.9,18.44,94,1,2.68,AU,1712955708
373,nobres,-14.7203,-56.3275,26.63,88,93,1.2,BR,1712955709
374,mersa matruh,31.3525,27.2453,18.11,72,0,4.12,EG,1712955709
375,rio gallegos,-51.6226,-69.2181,15.03,47,20,7.2,AR,1712955709
376,nelson bay,-32.7167,152.15,16.67,98,13,2.68,AU,1712955709
377,pangai,-19.8,-174.35,28.06,78,40,4.12,TO,1712955710
378,margate,51.3813,1.3862,14.37,73,100,3.58,GB,1712955710
379,wajir,1.7471,40.0573,27.96,75,38,5.0,KE,1712955710
380,zahedan,29.4963,60.8629,13.95,67,20,7.2,IR,1712955710
381,sidi khaled,34.387,4.9879,16.18,52,69,9.1,DZ,1712955711
382,nueva guinea,11.6876,-84.4562,32.23,42,100,9.87,NI,1712955711
383,tashtagol,52.7657,87.8894,-4.15,96,100,0.89,RU,1712955711
384,sault ste. marie,46.5168,-84.3333,4.31,87,100,11.83,CA,1712955711
385,olyokminsk,60.3736,120.4264,-11.0,95,93,1.81,RU,1712955712
386,fort st. john,56.2499,-120.8529,9.94,37,75,11.83,CA,1712955499
387,dawson creek,55.7666,-120.2362,10.8,25,20,9.26,CA,1712955636
388,conception bay south,47.4999,-52.9981,5.86,79,74,7.34,CA,1712955712
389,south hedland,-20.4089,118.5983,21.96,83,0,3.6,AU,1712955713
390,dauphin,51.1494,-100.0502,10.08,62,0,6.17,CA,1712955713
391,tabriz,38.08,46.2919,9.7,62,20,2.06,IR,1712955610
392,daru,-9.0763,143.2092,26.65,71,85,4.54,PG,1712955713
393,tazacorte,28.629,-17.9293,21.54,73,0,5.14,ES,1712955714
394,carnarvon,-24.8667,113.6333,23.58,55,84,7.18,AU,1712955714
395,alice springs,-23.7,133.8833,6.75,87,0,2.06,AU,1712955608
396,island harbour,50.724,-1.2758,13.59,83,100,0.45,GB,1712955714
397,san pedro pochutla,15.7333,-96.4667,33.7,37,90,3.84,MX,1712955715
398,motygino,58.1831,94.7592,-20.56,100,67,0.39,RU,1712955715
399,fortuna,40.5982,-124.1573,14.25,84,100,5.14,US,1712955715
400,kotlas,61.2611,46.6556,4.47,96,100,3.13,RU,1712955715
401,raja,8.4596,25.678,28.43,15,16,1.62,SS,1712955716
402,honiara,-9.4333,159.95,27.58,73,100,2.15,SB,1712955716
403,cumaral,4.2708,-73.4867,33.94,35,99,2.03,CO,1712955716
404,tutoia,-2.7619,-42.2744,26.88,87,53,3.15,BR,1712955717
405,quelimane,-17.8786,36.8883,25.97,78,75,3.58,MZ,1712955717
406,koping,59.514,15.9926,9.54,96,14,2.46,SE,1712955717
407,brokopondo,4.75,-55.1667,30.79,60,89,4.92,SR,1712955718
408,alofi,-19.0595,-169.9187,27.94,83,75,2.06,NU,1712955718
409,rio grande,-32.035,-52.0986,19.06,77,100,8.66,BR,1712955709
410,ola,59.5833,151.2833,-3.81,90,35,2.11,RU,1712955718
411,vrangel',42.7297,133.0839,6.27,93,27,1.97,RU,1712955719
412,tokar,18.4254,37.729,26.32,59,73,3.84,SD,1712955719
413,tionk essil,12.7856,-16.5217,24.37,58,62,4.52,SN,1712955719
414,itapirapua,-15.8233,-50.6133,26.57,81,48,1.52,BR,1712955719
415,college,64.8569,-147.8028,3.28,72,100,1.16,US,1712955720
416,qarauyl,48.9451,79.255,1.72,49,36,2.83,KZ,1712955720
417,cerro de ortega,18.75,-103.7667,31.95,45,0,3.41,MX,1712955720
418,betio village,1.358,172.9211,29.02,74,47,3.11,KI,1712955720
419,lincoln city,44.9582,-124.0179,17.15,81,100,8.94,US,1712955475
420,yeed,4.55,43.0333,29.95,58,96,7.38,SO,1712955721
421,veraval,20.9,70.3667,25.47,79,42,5.7,IN,1712955721
422,labuan,5.2767,115.2417,28.2,88,20,0.51,MY,1712955721
423,tadine,-21.55,167.8833,22.62,90,100,3.31,NC,1712955721
424,ayorou,14.7308,0.9174,33.54,8,100,4.73,NE,1712955722
425,mana,5.6592,-53.7767,27.79,78,42,4.73,GF,1712955722
426,dutsen wai,10.8501,8.199,28.04,17,96,1.03,NG,1712955722
427,cambria,35.5641,-121.0808,15.31,96,100,4.02,US,1712955722
428,blenheim,-41.516,173.9528,11.4,96,100,1.36,NZ,1712955618
429,sitka,57.0531,-135.33,2.94,75,100,2.57,US,1712955723
430,molepolole,-24.4066,25.4951,16.06,66,0,4.17,BW,1712955723
431,rongelap,11.1635,166.8941,26.91,73,99,8.96,MH,1712955723
432,bukoba,-1.3317,31.8122,21.27,87,100,2.06,TZ,1712955724
433,laascaanood,8.4774,47.3597,25.3,74,98,6.25,SO,1712955724
434,fortaleza,-3.7227,-38.5247,29.48,91,40,2.57,BR,1712955725
435,ristiina,61.5058,27.2464,0.06,81,2,1.34,FI,1712955725
436,hampton bays,40.869,-72.5176,16.32,81,75,5.66,US,1712955725
437,wichita falls,33.9137,-98.4934,27.36,38,0,13.41,US,1712955725
438,sisimiut,66.9395,-53.6735,-3.52,87,100,1.56,GL,1712955726
439,kavieng,-2.5744,150.7967,26.67,85,100,1.77,PG,1712955726
440,san patricio,28.017,-97.5169,29.4,36,100,7.26,US,1712955726
441,porsgrunn,59.1405,9.6561,8.81,78,0,2.9,NO,1712955726
442,lebu,-37.6167,-73.65,14.53,68,25,3.59,CL,1712955727
443,alaghsas,17.0187,8.0168,31.02,10,100,2.02,NE,1712955727
444,kerikeri,-35.2268,173.9474,14.39,95,8,3.3,NZ,1712955727
445,nar'yan-mar,67.6713,53.087,-15.55,91,100,7.13,RU,1712955728
446,uturoa,-16.7333,-151.4333,28.16,81,100,10.66,PF,1712955728
447,rio preto da eva,-2.6994,-59.6997,25.92,96,100,0.08,BR,1712955728
448,lenina,46.0667,39.7833,16.59,61,100,2.39,RU,1712955728
449,planaltina,-15.4528,-47.6142,21.57,90,78,2.39,BR,1712955729
450,saint-louis,16.3333,-15.0,36.53,13,60,4.06,SN,1712955729
451,sambava,-14.2667,50.1667,26.02,89,13,2.1,MG,1712955729
452,las heras,-46.5419,-68.9359,14.04,27,0,3.31,AR,1712955729
453,port-vila,-17.7338,168.3219,25.78,94,75,1.54,VU,1712955730
454,ust'-kut,56.7938,105.7672,-2.05,95,100,2.47,RU,1712955730
455,tuscania,42.4206,11.8712,17.49,79,0,3.04,IT,1712955730
456,angaur state,6.906,134.13,28.08,78,95,5.09,PW,1712955730
457,kununurra,-15.7667,128.7333,24.99,69,100,0.51,AU,1712955731
458,sao vicente,-23.9631,-46.3919,28.1,54,75,4.12,BR,1712955683
459,belokurikha,51.9959,84.9896,-2.57,77,97,2.74,RU,1712955731
460,kiunga,-6.1219,141.2906,22.49,99,87,0.56,PG,1712955731
461,holland,42.7875,-86.1089,13.06,75,100,3.58,US,1712955732
462,thinadhoo,0.5333,72.9333,27.68,82,100,6.36,MV,1712955732
463,stiens,53.2623,5.7577,13.32,75,100,5.65,NL,1712955732
464,agbabu,6.5886,4.8343,26.36,88,94,1.48,NG,1712955732
465,torghay,49.6339,63.4981,8.75,52,29,6.93,KZ,1712955733
466,at-bashi,41.1702,75.8106,9.54,45,100,1.41,KG,1712955733
467,nguigmi,14.2495,13.1092,31.15,11,87,4.43,NE,1712955733
468,mantua,45.1667,10.7833,18.58,85,24,1.24,IT,1712955734
469,santa rita,-7.1139,-34.9781,29.37,79,20,3.6,BR,1712955734
470,san rafael,-34.6177,-68.3301,11.78,66,98,5.24,AR,1712955587
471,boryeong,36.3493,126.5977,11.98,73,14,1.69,KR,1712955734
472,salekhard,66.53,66.6019,-4.22,93,99,3.13,RU,1712955734
473,campo maior,-4.8278,-42.1686,25.85,90,51,1.87,BR,1712955735
474,tagkawayan sabang,13.9911,122.5289,23.66,96,69,1.87,PH,1712955735
475,indianola,41.3581,-93.5574,19.39,25,3,7.6,US,1712955735
476,viqueque,-8.8673,126.3658,22.35,92,99,1.35,TL,1712955736
477,adam,22.3756,57.5233,27.18,61,89,3.23,OM,1712955736
478,misratah,32.3754,15.0925,18.39,73,49,11.45,LY,1712955736
479,yigo village,13.5361,144.8886,26.16,87,75,4.63,GU,1712955736
480,gurupi,-11.7292,-49.0686,27.66,78,100,1.95,BR,1712955737
481,severo-yeniseyskiy,60.3725,93.0408,-16.35,94,99,1.34,RU,1712955737
482,al bawiti,28.3492,28.8659,18.62,48,0,4.37,EG,1712955737
483,yanacancha,-10.2411,-76.6456,11.67,67,100,4.46,PE,1712955737
484,codrington,-38.2667,141.9667,10.37,87,49,2.91,AU,1712955738
485,amga,60.8953,131.9608,-16.63,92,100,1.81,RU,1712955738
486,isangel,-19.55,169.2667,23.06,100,100,0.0,VU,1712955738
487,shashemene,7.2,38.6,16.21,81,89,2.06,ET,1712955738
488,chahal guatemala,15.75,-89.5667,25.11,63,98,0.72,GT,1712955739
489,lapinlahti,65.5833,30.5667,0.17,84,100,1.73,RU,1712955739
490,sheridan,44.8333,-106.9173,26.21,17,0,3.09,US,1712955740
491,gaillimh,53.2719,-9.0489,10.61,93,100,7.15,IE,1712955740
492,st. john's,47.5649,-52.7093,6.55,73,75,9.77,CA,1712955610
493,mirny,62.5353,113.9611,-23.76,100,100,1.34,RU,1712955740
494,umba,66.6871,34.3429,-3.6,95,100,1.33,RU,1712955740
495,guiberoua,6.2392,-6.1727,24.7,94,77,1.42,CI,1712955741
496,natal,-5.795,-35.2094,29.12,79,20,5.14,BR,1712955600
497,sen monorom,12.45,107.2,20.5,83,100,0.44,KH,1712955741
498,colares,38.7992,-9.4469,21.55,54,0,8.23,PT,1712955741
499,sao joao da barra,-21.6403,-41.0511,27.05,81,89,4.35,BR,1712955742
500,west memphis,35.1465,-90.1845,21.86,30,0,3.09,US,1712955742
501,hudson,40.7168,-74.0663,17.88,56,100,10.73,US,1712955742
502,san julian,21.0167,-102.1667,28.32,16,89,0.72,MX,1712955743
503,yasuj,30.6682,51.588,8.75,61,0,0.0,IR,1712955743
504,kendari,-3.945,122.4989,23.47,97,72,1.51,ID,1712955743
505,galliano,29.4422,-90.2992,25.0,25,0,4.63,US,1712955743
506,hengchun,22.0042,120.7439,25.64,85,17,1.54,TW,1712955744
507,waddan,29.1614,16.139,24.79,20,0,13.51,LY,1712955744
508,paranapanema,-23.3886,-48.7228,25.17,63,100,5.9,BR,1712955744
509,anloga,5.7947,0.8973,28.92,76,87,4.53,GH,1712955744
510,amasra,41.7463,32.3863,12.8,87,14,2.13,TR,1712955745
511,ati,13.2154,18.3353,31.97,8,93,5.38,TD,1712955745
512,steinbach,50.1667,8.5667,14.54,81,0,1.03,DE,1712955745
513,miringa,10.7312,12.1463,30.38,12,40,2.26,NG,1712955745
514,ta`u,-14.2336,-169.5144,29.33,77,36,6.08,AS,1712955746
515,chiras,35.4167,65.9823,-0.12,95,83,3.39,AF,1712955746
516,west kelowna,49.8625,-119.5833,16.7,41,0,4.12,CA,1712955526
517,chegdomyn,51.1167,133.0167,6.15,92,100,1.1,RU,1712955746
518,manturovo,58.3353,44.7619,6.55,97,100,4.47,RU,1712955747
519,dongcun,36.7767,121.1597,9.56,98,25,1.76,CN,1712955747
520,al bardiyah,31.7561,25.0865,16.71,75,0,2.4,LY,1712955747
521,vel'sk,61.0701,42.0983,2.93,87,100,4.02,RU,1712955747
522,lisakovsk,52.5369,62.4936,12.13,82,100,6.96,KZ,1712955748
523,kargil,34.5667,76.1,-4.06,65,83,2.25,IN,1712955748
524,volosovo,59.4333,29.4833,5.24,89,99,1.96,RU,1712955749
525,monteagudo,-19.8167,-63.9833,17.16,97,100,0.84,BO,1712955749
526,mkushi,-13.6202,29.3939,17.61,96,100,3.13,ZM,1712955749
527,whitecourt,54.1502,-115.6855,10.58,50,75,1.54,CA,1712955608
528,vodnyy,63.5046,53.4095,-7.21,87,98,4.42,RU,1712955750
529,maine soroa,13.2114,12.0241,31.87,8,94,3.07,NE,1712955750
530,ghat,24.9647,10.1728,20.72,25,0,6.13,LY,1712955750
531,ekibastuz,51.6667,75.3667,6.5,49,100,8.93,KZ,1712955750
532,tarauaca,-8.1614,-70.7656,28.83,73,81,0.75,BR,1712955751
533,dem'yanovo,60.3511,47.0842,3.27,90,100,3.39,RU,1712955751
534,capitan bado,-23.2667,-55.5333,30.21,48,92,2.9,PY,1712955751
535,quibala,-10.7337,14.98,18.71,97,98,0.71,AO,1712955751
536,grand island,40.925,-98.342,21.45,24,0,3.09,US,1712955752
537,robinson,31.4677,-97.1147,26.6,40,0,6.69,US,1712955752
538,varena,54.2167,24.5667,9.46,83,100,2.04,LT,1712955752
539,ornskoldsvik,63.2909,18.7153,3.53,81,100,2.06,SE,1712955752
540,ibanda,-2.7974,32.4746,18.13,92,100,1.27,TZ,1712955753
541,kaura namoda,12.5898,6.5779,33.04,24,100,2.61,NG,1712955753
542,santona,43.4439,-3.4576,17.26,74,39,1.95,ES,1712955753
543,coahuayana de hidalgo,18.7,-103.6583,33.35,40,0,3.26,MX,1712955753
544,vinton,37.281,-79.897,16.69,51,75,6.69,US,1712955754
545,kismayo,-0.3582,42.5454,29.25,77,87,3.91,SO,1712955754
546,hilo,19.7297,-155.09,23.47,91,100,0.45,US,1712955755
547,taltal,-25.4,-70.4833,18.71,77,29,2.41,CL,1712955755
548,sabang,5.8933,95.3214,28.63,75,57,2.04,ID,1712955755
549,at taj,24.2049,23.2857,22.8,18,100,4.92,LY,1712955756
550,warmbad,-28.45,18.7333,23.55,25,2,4.68,NA,1712955756
551,saint-pierre,-21.3393,55.4781,26.82,78,82,2.06,RE,1712955756
552,saynshand,44.8824,110.1163,12.1,25,15,4.52,MN,1712955756
553,saacow,1.6279,42.4407,28.04,76,86,4.29,SO,1712955757
554,jinghong,21.991,100.7341,22.62,39,3,1.33,CN,1712955757
555,la cruz,23.9167,-106.9,26.43,52,98,3.01,MX,1712955757
556,kapa'a,22.0752,-159.319,27.99,86,29,2.24,US,1712955757
557,deir ez-zor,35.3359,40.1408,21.53,44,100,1.56,SY,1712955758
558,aripuana,-9.1667,-60.6333,26.68,85,100,1.27,BR,1712955758
559,malmberget,67.1753,20.6549,1.31,87,40,1.54,SE,1712955758
560,lorengau,-2.0226,147.2712,27.48,83,76,2.46,PG,1712955759
561,sassandra,4.95,-6.0833,28.15,80,72,2.75,CI,1712955759
562,pimenta bueno,-11.6725,-61.1936,24.2,99,100,0.35,BR,1712955760
563,moore,35.3395,-97.4867,26.87,33,0,7.72,US,1712955760
564,muzaffarnagar,29.4667,77.6833,25.76,16,89,1.24,IN,1712955760
565,langarud,37.197,50.1535,11.03,79,5,1.77,IR,1712955760
566,porto cristo,39.5395,3.333,14.62,77,0,2.71,ES,1712955761
567,fale old settlement,-9.3852,-171.2468,29.89,72,88,4.16,TK,1712955761
568,mogadishu,2.0371,45.3438,29.47,70,99,6.38,SO,1712955761
569,geraldton,-28.7667,114.6,17.23,77,2,4.63,AU,1712955762
570,ambovombe,-25.1667,46.0833,19.56,79,65,2.56,MG,1712955762
571,labrador city,52.9463,-66.9114,3.99,89,100,2.06,CA,1712955762
572,amboanjo,-22.6667,47.8167,22.35,89,98,3.6,MG,1712955762
573,juruti,-2.1522,-56.0922,26.32,92,100,2.16,BR,1712955763
574,horta,38.5333,-28.6333,16.8,88,20,8.05,PT,1712955763
